[
  { "Place": "Bengal", "lat": 22.978624, "lon": 87.7478 },
  { "Place": "Britain", "lat": 51.509865, "lon": -0.118092 },
  { "Place": "India", "lat": 20.593684, "lon": 78.96288 },
  { "Place": "Masulipatnam", "lat": 16.1667, "lon": 81.1333},
  { "Place": "Surat", "lat": 21.2, "lon": 72.84 },
  { "Place": "Bombay", "lat": 19.075983, "lon": 72.877655 },
  { "Place": "Europe", "lat": 54.5260, "lon": 15.2551 },
  { "Place": "Madras", "lat": 13.082680, "lon": 80.270721},
  { "Place": "France", "lat": 46.227638	, "lon": 2.213749 },
  { "Place": "Nair", "lat": -23.475990, "lon": -47.473419 },
  { "Place": "Delhi", "lat": 28.704060, "lon": 77.102493 },
  { "Place": "Persia", "lat": 41.578602, "lon": -95.568748 },
  { "Place": "Egypt", "lat": 26.820553, "lon": 30.802498 },
  { "Place": "Turkey", "lat": 38.963745, "lon": 35.243322 },
  { "Place": "Ava", "lat": 36.931789, "lon": -92.590134 },
  { "Place": "China", "lat": 35.86166, "lon": 104.195397 },
  { "Place": "Japan", "lat": 36.204824	, "lon": 138.252924 },
  { "Place": "Tamil Nadu", "lat": 11.127123, "lon": 78.656891 },
  { "Place": "England", "lat": 52.355518, "lon": -1.174320 },
  { "Place": "Dhaka", "lat": 23.810331, "lon": 90.412521 },
  { "Place": "Eastern India", "lat": -37.824490, "lon": 145.177170 },
  { "Place": "Bihar", "lat": 25.096073, "lon": 85.313118 },
  { "Place": "Orissa", "lat": 20.188650, "lon": 84.440849 },
  { "Place": "Mysore", "lat": 12.295810, "lon": 76.639381 },
  { "Place": "Hyderabad", "lat": 17.385044, "lon": 78.486671 },
  { "Place": "Calcutta", "lat": 22.572645, "lon": 88.363892 },
  { "Place": "Amoy", "lat": 48.143429, "lon": 1.988000 },
  { "Place": "Assam", "lat": 26.200603, "lon": 92.937576 },
  { "Place": "America", "lat": 37.0902, "lon": -95.7129 },
  { "Place": "Boston Bay", "lat": 41.552341, "lon": -83.602402 },
  { "Place": "London", "lat": 51.507351, "lon": -0.127758 },
  { "Place": "Malacca", "lat": 2.189594, "lon": 102.250084 },
  { "Place": "Malaysia", "lat": 4.210484, "lon": 101.975769 },
  { "Place": "Indonesia", "lat": -0.789275, "lon": 113.921326 },
  { "Place": "Penang", "lat": 5.416393, "lon": 100.332680},
  { "Place": "Hydrabad", "lat": 17.385044, "lon": 78.486671 },
  { "Place": "Andaman Islands", "lat": 12.367180, "lon": 92.924179 },
  { "Place": "Srirangapatna", "lat": 12.410640, "lon": 76.732590 },
  { "Place": "Patna", "lat": 25.594095, "lon": 85.137566 },
  { "Place": "Kashi", "lat": 40.657204, "lon": -73.646523 },
  { "Place": "Haileybury College", "lat": 51.795971, "lon":-0.078880 },
  { "Place": "near London", "lat": 0, "lon": 0 },
  { "Place": "UK", "lat": 55.378052, "lon": -3.435973 },
  { "Place": "Goa", "lat": 15.299326, "lon": 74.123993 },
  { "Place": "Travancore", "lat": -37.782059, "lon": 144.935242 },
  { "Place": "United States", "lat": 37.090240, "lon": -95.712891 },
  { "Place": "Sri Lanka", "lat": 7.873054, "lon": 80.771797 },
  { "Place": "Singapore", "lat": 1.352083, "lon": 103.819839 },
  { "Place": "Punjab", "lat": 31.147129, "lon": 75.341217 },
  { "Place": "Mauritius", "lat": -20.348404, "lon": 57.552151 },
  { "Place": "Agra", "lat": 27.176670, "lon": 78.008072 },
  { "Place": "Sindh", "lat": 25.894302, "lon": 68.524712 },
  { "Place": "Thane", "lat": 19.218330, "lon": 72.978088 },
  { "Place": "Canada", "lat": 56.130367, "lon": -106.346771 },
  { "Place": "US", "lat": 37.090240, "lon": -95.712891 },
  { "Place": "Germany", "lat": 51.165691, "lon": 10.451526 },
  { "Place": "Kolkata", "lat": 22.572645, "lon": 88.363892},
  { "Place": "Trinidad", "lat": 10.375722, "lon": -61.233559},
  { "Place": "Lucknow", "lat": 26.846695, "lon": 80.946167 },
  { "Place": "Allahabad", "lat": 25.435801, "lon": 81.846313 },
  { "Place": "Kanpur", "lat": 26.449923, "lon": 80.331871 },
  { "Place": "Jhansi", "lat": 25.448425, "lon": 78.568459 },
  { "Place": "Andamans", "lat": 11.740087, "lon": 92.658638},
  { "Place": "Durban", "lat": -29.858681, "lon": 31.021839 },
  { "Place": "South Africa", "lat": -30.559483, "lon": 22.937506 },
  { "Place": "Connagar", "lat": 22.708230, "lon": 88.343290 },
  { "Place": "Bally", "lat": 40.401241, "lon": -75.587448 },
  { "Place": "Ajmer", "lat": 26.449896, "lon": 74.639915 },
  { "Place": "Maharashtrian town of Satara", "lat": 17.680464, "lon": 74.018265 },
  { "Place": "America", "lat": 37.090240, "lon": -95.712891 },
  { "Place": "Ethiopia", "lat": 9.145000, "lon": 40.489674 },
  { "Place": "Caribbean island of St. Croix", "lat": 32.465450, "lon": -93.689842 },
  { "Place": "Malerkotla", "lat": 30.523209, "lon": 75.888252 },
  {
    "Place": "Royal Indian Engineering College at Cooper’s Hill near London",
    "lat": 51.507351,
    "lon": -0.127758
  },
  { "Place": "Malaya", "lat": 33.810364, "lon": -84.416374 },
  { "Place": "Fiji", "lat": -17.713371, "lon": 178.065033 },
  { "Place": "Somaliland", "lat": 9.862669, "lon": 46.136112},
  { "Place": "Jammu & Kashmir", "lat": 32.705330, "lon": 74.879997 },
  { "Place": "Australia", "lat": -25.274399, "lon": 133.775131},
  { "Place": "Burma", "lat": 21.916222, "lon": 95.955971 },
  { "Place": "Sudan", "lat": 12.862807, "lon": 30.217636 },
  { "Place": "East Africa", "lat": 1.957709, "lon": 37.297203 },
  { "Place": "Dacca", "lat": 23.707310, "lon": 90.415482 },
  { "Place": "Mesopotamia", "lat": 5.548060, "lon": -73.353653},
  { "Place": "German", "lat": 51.165691, "lon": 10.451526 },
  { "Place": "Jallianwala Bagh", "lat": 31.621309, "lon": 74.880447 },
  { "Place": "Amritsar", "lat": 31.633980, "lon": 74.872261 },
  { "Place": "Ottoman", "lat": -38.186960, "lon": 144.395840 },
  { "Place": "Austro-Hungarian", "lat": 39.928390, "lon": -82.990690 },
  { "Place": "New Delhi", "lat": 28.704060, "lon": 77.102493 },
  { "Place": "Kerala", "lat": 10.850516, "lon": 0 },
  { "Place": "Northern India", "lat": 28.983191, "lon": -82.446419},
  { "Place": "Calicut", "lat": 22.572645, "lon": 88.363892 },
  { "Place": "Peshawar’s Qissa Khwani Bazaar", "lat": 34.007880, "lon": 71.570234 },
  { "Place": "New York", "lat": 40.712776, "lon": -74.005974 },
  { "Place": "Poland", "lat": 51.919437, "lon": 19.145136 },
  { "Place": "Africa", "lat": -8.783195, "lon": 34.508522 },
  { "Place": "Lahore", "lat": 31.520370, "lon": 74.358749 },
  { "Place": "Pakistan", "lat": 30.375320, "lon": 69.345116 },
  { "Place": "Karachi", "lat": 24.860735, "lon": 67.001137 },
  { "Place": "Japan", "lat": 36.204823, "lon": 138.252930 },
  { "Place": "Simla", "lat": 39.141399, "lon": -104.080910 }
]
